latitude,longitude,Order,Category,name,City,Address,latitude,longitude,Website,Contact,Email,Description
17.108153,48.16063,108,Psychologická pomoc,Linka detskej istoty,Bratislava,"Na vŕšku 338/6, Bratislava",17.108153,48.16063,www.ldi.sk,116111,info@ldi.sk,"podpora a ochrana práv detí a mladých ľudí, poskytovania informácií, prevencie či krízovej intervencie a dištančného psychologického a sociálneho poradenstva, zlepšovanie duševného zdravia a poskytovanie odborných intervencií.

"
17.400869,48.21717,77,Integračné centrá,Tenenet Centrum pre deti a rodiny,Senec,"Oravská 4, Senec",17.400869,48.21717,tenenet.sk,421220201111,info@tenenet.sk,"Občianske združenie ponúkajúce psychosociálnu podporu na mieru pre rodiny, vrátane detí odídencov so zdravotným znevýhodnením z Ukrajiny. Centrá Tenenet poskytujú taktiež voľnočasové aktivity pre deti a mládež so zdravotným znevýhodnením. "
17.400869,48.21717,77,Psychologická pomoc,Tenenet Centrum pre deti a rodiny,Senec,"Oravská 4, Senec",17.400869,48.21717,tenenet.sk,421220201111,info@tenenet.sk,"Občianske združenie ponúkajúce psychosociálnu podporu na mieru pre rodiny, vrátane detí odídencov so zdravotným znevýhodnením z Ukrajiny. Centrá Tenenet poskytujú taktiež voľnočasové aktivity pre deti a mládež so zdravotným znevýhodnením."
17.400869,48.21717,77,Starostlivosť do 7 rokov,Tenenet Centrum pre deti a rodiny,Senec,"Oravská 4, Senec",17.400869,48.21717,tenenet.sk,421220201111,info@tenenet.sk,"Občianske združenie ponúkajúce psychosociálnu podporu na mieru pre rodiny, vrátane detí odídencov so zdravotným znevýhodnením z Ukrajiny. Centrá Tenenet poskytujú taktiež voľnočasové aktivity pre deti a mládež so zdravotným znevýhodnením."
17.400869,48.21717,77,Voľný čas,Tenenet Centrum pre deti a rodiny,Senec,"Oravská 4, Senec",17.400869,48.21717,tenenet.sk,421220201111,info@tenenet.sk,"Občianske združenie ponúkajúce psychosociálnu podporu na mieru pre rodiny, vrátane detí odídencov so zdravotným znevýhodnením z Ukrajiny. Centrá Tenenet poskytujú taktiež voľnočasové aktivity pre deti a mládež so zdravotným znevýhodnením."
17.123805,48.154864,63,Psychosociálna podpora,Návrat Bratislava,Bratislava,"Pluhová 1, 831 03 Bratislava",17.123805,48.154864,www.navrat.sk,421252444361,navrat@navrat.sk,Nezisková organizácia sprevádzajúca rodiny v núdzi a deti v náhradnej starostlivosti.
17.125164,48.14262,109,Voľný čas,"UP - Down syndrom, o.z.",Bratislava,"Gercenova 1, 851 01 Bratislava",17.125164,48.14262,www.up-down.sk,421903243440,updownsyndrom@gmail.com,"Pomáhame a poskytujeme podporu ľuďom s Downovým syndrómom alebo s iným mentálnym či telesným znevýhodnením. Snažíme sa pomáhať pri vzdelávaní, hľadaní možnosti pracovať, pri zmysluplnom využívaní voľného času (napr. Divadlo Dúhadlo), sme s nimi pri objavovaní ciest, ako sa zaradiť do spoločnosti a byť touto spoločnosťou akceptovaní."
17.821203,48.592784,103,Finančná a materiálna podpora,ADRA DobroCentrum,Piešťany,"Teplická 4, Piešťany",17.821203,48.592784,https://www.adra.sk/ako-pomahame/slovensko/dobrocentra/,421903431441,office@adra.sk,Mimovládna organizácia poskytujúca materiálnu a sociálnu podporu pre sociálne znevýhodnené skupiny.
19.603575,49.080261,101,Finančná a materiálna podpora,ADRA DobroCentrum,Liptovský Hrádok,"Liptovská Porúbka 149, 033 01 Liptovská Porúbka",19.603575,49.080261,https://www.adra.sk/ako-pomahame/slovensko/dobrocentra/,421903731288,office@adra.sk,Mimovládna organizácia poskytujúca materiálnu a sociálnu podporu pre sociálne znevýhodnené skupiny.
18.041186,48.8964,104,Finančná a materiálna podpora,ADRA DobroCentrum,Trenčín,"Ľudovíta Starka 1890/26, Trenčín",18.041186,48.8964,https://www.adra.sk/ako-pomahame/slovensko/dobrocentra/,421903759450,office@adra.sk,Mimovládna organizácia poskytujúca materiálnu a sociálnu podporu pre sociálne znevýhodnené skupiny.
18.746064,49.2181,17,Podľa znevýhodnenia,Asociácia nepočujúcich Slovenka,Slovakia,"Kálov 357/17, Žilina",18.746064,49.2181,www.aneps.sk ,421903762810,prezidentkaaneps@gmail.com,"Asociácia nepočujúcich Slovenka poskytuje pomoc pri tlmočení do posunkového jazyka a informačnú podporu v posunkovom jazyku. Vyjadruje solidaritu a podporu ukrajinským nepočujúcim. Pomoc zo strany ANeS spočíva vo viacerých oblastiach, ktoré sú zhrnuté a zosumarizované na podstránke: https://aneps.sk/aneps-pomaha-ukrajine-nepocujucim/ "
18.08455,48.311904,21,Podľa znevýhodnenia,Únia nevidiacich a slabozrakých Slovenska,Nitra,"Nedbalova 540/ 17, 949 11 Nitra",18.08455,48.311904,www.unss.sk ,421905469649,unss.nitra@unss.sk,"Únia nevidiacich a slabozrakých Slovenska vyjadruje solidaritu Ukrajine, vyslovuje podporu Ukrajinskej asociácii nevidiacich (The Ukrainian Association of the Blind) a podáva pomocnú ruku jej členom so zrakovým znevýhodnením, ktorí sa nachádzajú na území SR. Únia mobilizuje svoje ľudské a materiálne kapacity, aby boli schopní koordinovane a dlhodobo pomáhať."
18.732772,49.22706,26,Podľa znevýhodnenia,Únia nevidiacich a slabozrakých Slovenska,Žilina,"Karpatská 10, 010 08 Žilina",18.732772,49.22706,www.unss.sk ,421905477970,unss.zilina@unss.sk,"Únia nevidiacich a slabozrakých Slovenska vyjadruje solidaritu Ukrajine, vyslovuje podporu Ukrajinskej asociácii nevidiacich (The Ukrainian Association of the Blind) a podáva pomocnú ruku jej členom so zrakovým znevýhodnením, ktorí sa nachádzajú na území SR. Únia mobilizuje svoje ľudské a materiálne kapacity, aby boli schopní koordinovane a dlhodobo pomáhať."
18.041834,48.89206,22,Podľa znevýhodnenia,Únia nevidiacich a slabozrakých Slovenska,Trenčín,"Námestie sv. Anny č. 9, 911 01 Trenčín",18.041834,48.89206,www.unss.sk ,421905477971,unss.trencin@unss.sk,"Únia nevidiacich a slabozrakých Slovenska vyjadruje solidaritu Ukrajine, vyslovuje podporu Ukrajinskej asociácii nevidiacich (The Ukrainian Association of the Blind) a podáva pomocnú ruku jej členom so zrakovým znevýhodnením, ktorí sa nachádzajú na území SR. Únia mobilizuje svoje ľudské a materiálne kapacity, aby boli schopní koordinovane a dlhodobo pomáhať."
21.241347,48.99836,24,Podľa znevýhodnenia,Únia nevidiacich a slabozrakých Slovenska,Prešov,"Kollárova 11, 080 01 Prešov",21.241347,48.99836,www.unss.sk ,421905477974,unss.presov@unss.sk,"Únia nevidiacich a slabozrakých Slovenska vyjadruje solidaritu Ukrajine, vyslovuje podporu Ukrajinskej asociácii nevidiacich (The Ukrainian Association of the Blind) a podáva pomocnú ruku jej členom so zrakovým znevýhodnením, ktorí sa nachádzajú na území SR. Únia mobilizuje svoje ľudské a materiálne kapacity, aby boli schopní koordinovane a dlhodobo pomáhať."
19.152193,48.73498,23,Podľa znevýhodnenia,Únia nevidiacich a slabozrakých Slovenska,Banská Bystrica,"Internátna 10, 974 04 Banská Bystrica",19.152193,48.73498,www.unss.sk ,421905477975,unss.bystrica@unss.sk,"Únia nevidiacich a slabozrakých Slovenska vyjadruje solidaritu Ukrajine, vyslovuje podporu Ukrajinskej asociácii nevidiacich (The Ukrainian Association of the Blind) a podáva pomocnú ruku jej členom so zrakovým znevýhodnením, ktorí sa nachádzajú na území SR. Únia mobilizuje svoje ľudské a materiálne kapacity, aby boli schopní koordinovane a dlhodobo pomáhať. "
21.253253,48.72073,25,Podľa znevýhodnenia,Únia nevidiacich a slabozrakých Slovenska,Košice,"Park obrancov mieru 1, 040 01 Košice",21.253253,48.72073,www.unss.sk ,421905490645,unss.kosice@unss.sk,"Únia nevidiacich a slabozrakých Slovenska vyjadruje solidaritu Ukrajine, vyslovuje podporu Ukrajinskej asociácii nevidiacich (The Ukrainian Association of the Blind) a podáva pomocnú ruku jej členom so zrakovým znevýhodnením, ktorí sa nachádzajú na území SR. Únia mobilizuje svoje ľudské a materiálne kapacity, aby boli schopní koordinovane a dlhodobo pomáhať."
20.402192,49.201411,99,Finančná a materiálna podpora,ADRA DobroCentrum,"Gerlachov, Bardejov District","Hlavná 110, Gerlachov",20.402192,49.201411,https://www.adra.sk/ako-pomahame/slovensko/dobrocentra/,421905544783,office@adra.sk,Mimovládna organizácia poskytujúca materiálnu a sociálnu podporu pre sociálne znevýhodnené skupiny.
17.815051,48.428849,70,Podľa znevýhodnenia,Rehabilitačné centrum Natália,Hlohovec,"Pribinova 18, 920 01 Hlohovec",17.815051,48.428849,https://centrumnatalia.sk/,421905960856,centrum@pomocdruhemu.sk,"Komplexná a odborná starostlivosť pre deti trpiace detskou mozgovou obrnou (ambulantné terapie, rTMS terapia, Bobath koncept, TheraSuit metóda, špeciálna pedagogika)."
17.815051,48.428849,70,Zdravie a terapie,Rehabilitačné centrum Natália,Hlohovec,"Pribinova 18, 920 01 Hlohovec",17.815051,48.428849,https://centrumnatalia.sk/,421905960856,centrum@pomocdruhemu.sk,"Komplexná a odborná starostlivosť pre deti trpiace detskou mozgovou obrnou (ambulantné terapie, rTMS terapia, Bobath koncept, TheraSuit metóda, špeciálna pedagogika)."
20.293161,49.062016,59,Finančná a materiálna podpora,Dobrý anjel,Slovakia,"Karpatská 3256/15, Poprad",20.293161,49.062016,https://dobryanjel.sk/detom-z-ukrajiny/,421907152459,info@dobryanjel.sk,"Nezisková organizácia, ktorá finančne pomáha rodinám, ktorých člen trpí ťažkou chorobou alebo má zdravotné znevýhodnenie."
17.149459,48.172062,13,Podľa znevýhodnenia,Slovenské hemofilické združenie,Slovakia,"Antolská 11, 851 07 Bratislava",17.149459,48.172062,"www.shz.sk, https://www.facebook.com/Slovenské-hemofilické-združenie-215047991847203",421907615270,shz@shz.sk,"Slovenské hemofilické združenie obdŕžalo prostredníctvom Európskeho hemofilického konzorcia prosbu o pomoc z Ukrajinskej hemofilickej asociácie, ktorí musia z dôvodu vojny opustiť svoju krajinu. Konkrétne ide o pomoc pri presune väčšieho objemu koncentrátov koagulačných faktorov cez hranicu, pomoc s orientovaním sa v systéme zdravotnej starostlivosti pre cudzincov, pomoc s orientovaním sa v zdravotnej starostlivosti o pacientov s vrodenými poruchami zrážania krvi. Pre komunikáciu v ruskom jazyku: Ing. Jaroslav Janovec, predseda Slovenského hemofilického združenia +421905241353. Pre komunikáciu v anglickom jazyku: MUDr. Martin Sedmina, lekár, hematológ, podpredseda Slovenského hemofilického združenia: +421907615270 (aj Viber a WhatsApp). SHZ taktiež zabezpečuje pomoc pri presune väčšieho objemu koncentrátov koagulačných faktorov cez hranicu, pomoc s orientovaním sa v systéme zdravotnej starostlivosti pre cudzincov,  pomoc s orientovaním sa v zdravotnej starostlivosti o pacientov s vrodenými poruchami zrážania krvi."
18.7399,49.220445,68,Psychosociálna podpora,Poradenské miesto Návrat-Trenčín* (Služby v poradenskom centre poskytujú odborní pracovníci z Centra Návrat v Žiline),Trenčín,"Republiky 31, 010 01 Žilina",18.7399,49.220445,www.navrat.sk,421907706523,navrat@navrat.sk,Nezisková organizácia sprevádzajúca rodiny v núdzi a deti v náhradnej starostlivosti.
17.147437,48.185497,62,Starostlivosť do 7 rokov,Raná starostlivosť,Bratislava,"Tbiliská 6, 831 06 Bratislava - Rača",17.147437,48.185497,https://ranastarostlivost.sk,421908626001,info@ranastarostlivost.sk,Centrum včasnej intervencie pre rodiny s deťmi so zrakovým a viacnásobným znevýhodnením.
19.146978,48.731331,80,Integračné centrá,SpotOn,Banská Bystrica,"Námestie SNP 16, Banská Bystrica",19.146978,48.731331,tenenet.sk,421910054022,,"Občianske združenie ponúkajúce psychosociálnu podporu na mieru pre rodiny, vrátane detí odídencov so zdravotným znevýhodnením z Ukrajiny. Centrá Tenenet poskytujú taktiež voľnočasové aktivity pre deti a mládež so zdravotným znevýhodnením."
19.146978,48.731331,80,Psychologická pomoc,SpotOn,Banská Bystrica,"Námestie SNP 16, Banská Bystrica",19.146978,48.731331,tenenet.sk,421910054022,,"Občianske združenie ponúkajúce psychosociálnu podporu na mieru pre rodiny, vrátane detí odídencov so zdravotným znevýhodnením z Ukrajiny. Centrá Tenenet poskytujú taktiež voľnočasové aktivity pre deti a mládež so zdravotným znevýhodnením."
21.249979,48.720558,51,Psychosociálna podpora,Všetci pre rodinu,Košice,"Hemerkova 28, Košice",21.249979,48.720558,vsetciprerodinu.sk,421910422551,info@vsetciprerodinu.sk,"Organizácia poskytujúca dlhodobú podporu zameranú na udržanie bývania. Poskytujeme zdravotné, sociálne, právne a psychologické poradenstvo, ktoré rozširujeme, aby rodiny v núdzi dostali na mieru šitú komplexnú podporu na komplexné problémy, priamo u nich doma."
20.678477,49.30344,88,Integračné centrá,Tenenet Centrum pre deti a rodiny,Stará Ľubovňa,"Levočská 335/1, 064 01 Stará Ľubovňa",20.678477,49.30344,tenenet.sk,421910546002,,"Občianske združenie ponúkajúce psychosociálnu podporu na mieru pre rodiny, vrátane detí odídencov so zdravotným znevýhodnením z Ukrajiny. Centrá Tenenet poskytujú taktiež voľnočasové aktivity pre deti a mládež so zdravotným znevýhodnením."
20.678477,49.30344,88,Psychologická pomoc,Tenenet Centrum pre deti a rodiny,Stará Ľubovňa,"Levočská 335/1, 064 01 Stará Ľubovňa",20.678477,49.30344,tenenet.sk,421910546002,,"Občianske združenie ponúkajúce psychosociálnu podporu na mieru pre rodiny, vrátane detí odídencov so zdravotným znevýhodnením z Ukrajiny. Centrá Tenenet poskytujú taktiež voľnočasové aktivity pre deti a mládež so zdravotným znevýhodnením."
20.678477,49.30344,88,Starostlivosť do 7 rokov,Tenenet Centrum pre deti a rodiny,Stará Ľubovňa,"Levočská 335/1, 064 01 Stará Ľubovňa",20.678477,49.30344,tenenet.sk,421910546002,,"Občianske združenie ponúkajúce psychosociálnu podporu na mieru pre rodiny, vrátane detí odídencov so zdravotným znevýhodnením z Ukrajiny. Centrá Tenenet poskytujú taktiež voľnočasové aktivity pre deti a mládež so zdravotným znevýhodnením."
20.678477,49.30344,88,Voľný čas,Tenenet Centrum pre deti a rodiny,Stará Ľubovňa,"Levočská 335/1, 064 01 Stará Ľubovňa",20.678477,49.30344,tenenet.sk,421910546002,,"Občianske združenie ponúkajúce psychosociálnu podporu na mieru pre rodiny, vrátane detí odídencov so zdravotným znevýhodnením z Ukrajiny. Centrá Tenenet poskytujú taktiež voľnočasové aktivity pre deti a mládež so zdravotným znevýhodnením."
21.911135,48.754001,78,Integračné centrá,Tenenet Centrum pre deti a rodiny,Michalovce,"CDR Jilemnického 13, 072 01 Michalovce",21.911135,48.754001,tenenet.sk,421910546009,info@tenenet.sk,"Občianske združenie ponúkajúce psychosociálnu podporu na mieru pre rodiny, vrátane detí odídencov so zdravotným znevýhodnením z Ukrajiny. Centrá Tenenet poskytujú taktiež voľnočasové aktivity pre deti a mládež so zdravotným znevýhodnením. "
21.911135,48.754001,78,Psychologická pomoc,Tenenet Centrum pre deti a rodiny,Michalovce,"CDR Jilemnického 13, 072 01 Michalovce",21.911135,48.754001,tenenet.sk,421910546009,info@tenenet.sk,"Občianske združenie ponúkajúce psychosociálnu podporu na mieru pre rodiny, vrátane detí odídencov so zdravotným znevýhodnením z Ukrajiny. Centrá Tenenet poskytujú taktiež voľnočasové aktivity pre deti a mládež so zdravotným znevýhodnením."
17.104709,48.154782,87,Integračné centrá,Blue Dots,Bratislava,"Bottova 6654/7, 811 09 Bratislava",17.104709,48.154782,tenenet.sk,421911054044,info@tenenet.sk,"Občianske združenie ponúkajúce psychosociálnu podporu na mieru pre rodiny, vrátane detí odídencov so zdravotným znevýhodnením z Ukrajiny. Centrá Tenenet poskytujú taktiež voľnočasové aktivity pre deti a mládež so zdravotným znevýhodnením."
17.104709,48.154782,87,Psychologická pomoc,Blue Dots,Bratislava,"Bottova 6654/7, 811 09 Bratislava",17.104709,48.154782,tenenet.sk,421911054044,info@tenenet.sk,"Občianske združenie ponúkajúce psychosociálnu podporu na mieru pre rodiny, vrátane detí odídencov so zdravotným znevýhodnením z Ukrajiny. Centrá Tenenet poskytujú taktiež voľnočasové aktivity pre deti a mládež so zdravotným znevýhodnením."
17.104709,48.154782,87,Starostlivosť do 7 rokov,Blue Dots,Bratislava,"Bottova 6654/7, 811 09 Bratislava",17.104709,48.154782,tenenet.sk,421911054044,info@tenenet.sk,"Občianske združenie ponúkajúce psychosociálnu podporu na mieru pre rodiny, vrátane detí odídencov so zdravotným znevýhodnením z Ukrajiny. Centrá Tenenet poskytujú taktiež voľnočasové aktivity pre deti a mládež so zdravotným znevýhodnením."
17.104709,48.154782,87,Voľný čas,Blue Dots,Bratislava,"Bottova 6654/7, 811 09 Bratislava",17.104709,48.154782,tenenet.sk,421911054044,info@tenenet.sk,"Občianske združenie ponúkajúce psychosociálnu podporu na mieru pre rodiny, vrátane detí odídencov so zdravotným znevýhodnením z Ukrajiny. Centrá Tenenet poskytujú taktiež voľnočasové aktivity pre deti a mládež so zdravotným znevýhodnením."
18.927342,49.07822,43,Škola,OZ Turiec pre deti,Martin,"Matúša Dulu 4924, Martin",18.927342,49.07822,https://www.turiecpredeti.sk/,421911211330,info@turiecpredeti.sk,"Občianske združenie sprevádzajúce rodičov pri starostlivosti o deti v regióne mapovaním podujatí a služieb (voľný čas, škola, lekár, atď.)."
18.927342,49.07822,43,Voľný čas,OZ Turiec pre deti,Martin,"Matúša Dulu 4924, Martin",18.927342,49.07822,https://www.turiecpredeti.sk/,421911211330,info@turiecpredeti.sk,"Občianske združenie sprevádzajúce rodičov pri starostlivosti o deti v regióne mapovaním podujatí a služieb (voľný čas, škola, lekár, atď.)."
18.927342,49.07822,43,Zdravie a terapie,OZ Turiec pre deti,Martin,"Matúša Dulu 4924, Martin",18.927342,49.07822,https://www.turiecpredeti.sk/,421911211330,info@turiecpredeti.sk,"Občianske združenie sprevádzajúce rodičov pri starostlivosti o deti v regióne mapovaním podujatí a služieb (voľný čas, škola, lekár, atď.)."
17.595442,48.37815,20,Podľa znevýhodnenia,Únia nevidiacich a slabozrakých Slovenska,Trnava,"Trhová 2, 917 01 Trnava",17.595442,48.37815,www.unss.sk ,421911496639,unss.trnava@unss.sk,"Únia nevidiacich a slabozrakých Slovenska vyjadruje solidaritu Ukrajine, vyslovuje podporu Ukrajinskej asociácii nevidiacich (The Ukrainian Association of the Blind) a podáva pomocnú ruku jej členom so zrakovým znevýhodnením, ktorí sa nachádzajú na území SR. Únia mobilizuje svoje ľudské a materiálne kapacity, aby boli schopní koordinovane a dlhodobo pomáhať."
21.247238,48.721682,49,Finančná a materiálna podpora,Nadácia Dedo,Košice,"Lomená 7, Košice",21.247238,48.721682,https://www.nadaciadedo.sk/,421911754700,info@nadaciadedo.sk,"Nezisková organizácia pomáhajúca rodinám v hmotnej núdzi, pôsobiaca v Košickom kraji.7"
18.93057,49.077409,41,Starostlivosť do 7 rokov,Centrum včasnej intervencie Žilina,Martin,"V. P. Tótha 4, 036 01 Martin",18.93057,49.077409,https://www.cvizilina.sk/,421911952129,pracoviskomartin@cvizilina.sk,"Služba včasnej intervencie je bezplatná sociálna služba (podľa Zákona č. 448/2008 Z.z.), ktorá sa poskytuje dieťaťu od narodenia do siedmich rokov jeho veku, ak je jeho vývin rizikový, alebo ohrozený z dôvodu zdravotného znevýhodnenia a rodine tohto dieťaťa. Transdisciplinárny tím (sociálny pracovník, psychológ, ergoterapeut, pediater, fyzioterapeut) poskytuje služby deťom s zisteným oneskorením vo vývine alebo deťom s zisteným vývinovým postihnutím. Všetky služby sú orientované na rodinu, poskytujú sa väčšinou v prirodzenom prostredí dieťaťa a rodiny – domácom a inom komunitnom prostredí. / Послуга раннього втручання – це безкоштовна соціальна послуга (відповідно до Закону № 448/2008 Зб.), яка надається дитині від народження до семи років, якщо її розвиток є ризиковим або із загрозою для здоров’я дитини та її сім’ї. Трансдисциплінарна команда (соціальний працівник, психолог, ерготерапевт, педіатр, фізіотерапевт) надає послуги дітям із затримкою розвитку або дітям з вадами розвитку. Усі послуги орієнтовані на сім’ю, надаються переважно в природному середовищі дитини та сім’ї – домашньому та інших соціальному середовищах. / Early intervention services are social services free of charge (according to the Act No. 448/2008 Z.z.) and are provided to children until 7 years of age and their families in cases where the child’s development is at risk or is threatened due to a disability. An interdisciplinary team (social worker, psychologist, occupational therapist, paediatrician, physiotherapist) provides services for children with identified developmental delays or developmental disabilities. All services are family-centred, provided mostly in the child’s natural environment– at home and in other community settings."
18.738113,49.221835,42,Starostlivosť do 7 rokov,Centrum včasnej intervencie Martin,Žilina,"Saleziánska 4, 010 77 Žilina",18.738113,49.221835,https://www.cvizilina.sk/,421911952129,pracoviskomartin@cvizilina.sk,"Služba včasnej intervencie je bezplatná sociálna služba (podľa Zákona č. 448/2008 Z.z.), ktorá sa poskytuje dieťaťu od narodenia do siedmich rokov jeho veku, ak je jeho vývin rizikový, alebo ohrozený z dôvodu zdravotného znevýhodnenia a rodine tohto dieťaťa. Transdisciplinárny tím (sociálny pracovník, psychológ, ergoterapeut, pediater, fyzioterapeut) poskytuje služby deťom s zisteným oneskorením vo vývine alebo deťom s zisteným vývinovým postihnutím. Všetky služby sú orientované na rodinu, poskytujú sa väčšinou v prirodzenom prostredí dieťaťa a rodiny – domácom a inom komunitnom prostredí. / Послуга раннього втручання – це безкоштовна соціальна послуга (відповідно до Закону № 448/2008 Зб.), яка надається дитині від народження до семи років, якщо її розвиток є ризиковим або із загрозою для здоров’я дитини та її сім’ї. Трансдисциплінарна команда (соціальний працівник, психолог, ерготерапевт, педіатр, фізіотерапевт) надає послуги дітям із затримкою розвитку або дітям з вадами розвитку. Усі послуги орієнтовані на сім’ю, надаються переважно в природному середовищі дитини та сім’ї – домашньому та інших соціальному середовищах. / Early intervention services are social services free of charge (according to the Act No. 448/2008 Z.z.) and are provided to children until 7 years of age and their families in cases where the child’s development is at risk or is threatened due to a disability. An interdisciplinary team (social worker, psychologist, occupational therapist, paediatrician, physiotherapist) provides services for children with identified developmental delays or developmental disabilities. All services are family-centred, provided mostly in the child’s natural environment– at home and in other community settings."
20.391723,49.215128,100,Finančná a materiálna podpora,ADRA DobroCentrum,Košice,Šarišská 3 (časť Vyšné Opátske),20.391723,49.215128,https://www.adra.sk/ako-pomahame/slovensko/dobrocentra/,421915656694,office@adra.sk,Mimovládna organizácia poskytujúca materiálnu a sociálnu podporu pre sociálne znevýhodnené skupiny.
17.098466,48.14654,98,Finančná a materiálna podpora,ADRA DobroCentrum,Bratislava,"Cablkova 3, Bratislava",17.098466,48.14654,https://www.adra.sk/ako-pomahame/slovensko/dobrocentra/,421915793934,office@adra.sk,Mimovládna organizácia poskytujúca materiálnu a sociálnu podporu pre sociálne znevýhodnené skupiny.
19.070175,48.690554,105,Starostlivosť do 7 rokov,ATHÉNA o. z.,Hnúšťa,"Klokočova 741, 98101 Hnúšťa",19.070175,48.690554,www.svihnusta.sk,421915950591,klenovicova.vihnusta@gmail.com,"Komplexná stimulácia vývinu dieťaťa, identifikácia vývinovej úrovne dieťaťa, poskytovanie informácií o vývine a potrebách dieťaťa v závislosti od veku, typu a stupňa postihnutia, stimulácia vývinu v oblasti mobility, vnímania, komunikácie, adaptívneho správania a hry; návrh alternatívnych komunikačných stratégií; prispôsobenie sa prostrediu; odporúčanie a dizajn zariadení a hračiek s ohľadom na individuálne potreby dieťaťa; posilňovanie silných stránok detí a rešpektovanie ich limitov; podpora interakcie rodič-dieťa; zapájanie detí do každodenného života ich rodín."
21.239752,48.724272,50,Psychosociálna podpora,ETP Slovensko,Košice,"Tajovského 1, Košice",21.239752,48.724272,etp.sk,421917179639,etp@ke.etp.sk,Občianske združenie ETP Slovensko podporuje zraniteľné skupiny a jednotlivcov na východnom Slovensku.
21.239752,48.724272,50,Voľný čas,ETP Slovensko,Košice,"Tajovského 1, Košice",21.239752,48.724272,etp.sk,421917179639,etp@ke.etp.sk,Občianske združenie ETP Slovensko podporuje zraniteľné skupiny a jednotlivcov na východnom Slovensku.
17.595442,48.37815,64,Psychosociálna podpora,Návrat Trnava,Trnava,"Trhová 2, 917 01 Trnava",17.595442,48.37815,www.navrat.sk,421917649478,navrat@navrat.sk,Nezisková organizácia sprevádzajúca rodiny v núdzi a deti v náhradnej starostlivosti.
17.13129,48.1533,45,Psychologická pomoc,Liga za duševné zdravie,Slovakia,"Sevčenkova 21, Bratislava 85102",17.13129,48.1533,https://dusevnezdravie.sk/,421918607212,dusevnezdravie@dusevnezdravie.sk,"Liga za duševné zdravie je nepolitické, charitatívne, humanitné, neprofesionálne, nezávislé záujmové združenie občanov a právnických osôb a jej cieľom je aktívna podpora duševného zdravia."
20.591662,48.94436,79,Integračné centrá,Naša cesta,Spišská Nová Ves,"Štefánikovo námestie 10, Spišská Nová Ves 05201",20.591662,48.94436,https://www.spisskanovaves.eu/hladam-info/pomoc-ukrajine/stab-pomoci-ukrajincom-v-spisskej-novej-vsi-співробітників-на-допомогу-українцям,421918694136,semancakova.olga@gmail.com,"Občianske združenie ponúkajúce psychosociálnu podporu na mieru pre rodiny, vrátane detí odídencov so zdravotným znevýhodnením z Ukrajiny. Centrá Tenenet poskytujú taktiež voľnočasové aktivity pre deti a mládež so zdravotným znevýhodnením."
20.591662,48.94436,79,Psychologická pomoc,Naša cesta,Spišská Nová Ves,"Štefánikovo námestie 10, Spišská Nová Ves 05201",20.591662,48.94436,https://www.spisskanovaves.eu/hladam-info/pomoc-ukrajine/stab-pomoci-ukrajincom-v-spisskej-novej-vsi-співробітників-на-допомогу-українцям,421918694136,semancakova.olga@gmail.com,"Občianske združenie ponúkajúce psychosociálnu podporu na mieru pre rodiny, vrátane detí odídencov so zdravotným znevýhodnením z Ukrajiny. Centrá Tenenet poskytujú taktiež voľnočasové aktivity pre deti a mládež so zdravotným znevýhodnením."
20.591662,48.94436,79,Starostlivosť do 7 rokov,Naša cesta,Spišská Nová Ves,"Štefánikovo námestie 10, Spišská Nová Ves 05201",20.591662,48.94436,https://www.spisskanovaves.eu/hladam-info/pomoc-ukrajine/stab-pomoci-ukrajincom-v-spisskej-novej-vsi-співробітників-на-допомогу-українцям,421918694136,semancakova.olga@gmail.com,"Občianske združenie ponúkajúce psychosociálnu podporu na mieru pre rodiny, vrátane detí odídencov so zdravotným znevýhodnením z Ukrajiny. Centrá Tenenet poskytujú taktiež voľnočasové aktivity pre deti a mládež so zdravotným znevýhodnením."
20.591662,48.94436,79,Voľný čas,Naša cesta,Spišská Nová Ves,"Štefánikovo námestie 10, Spišská Nová Ves 05201",20.591662,48.94436,https://www.spisskanovaves.eu/hladam-info/pomoc-ukrajine/stab-pomoci-ukrajincom-v-spisskej-novej-vsi-співробітників-на-допомогу-українцям,421918694136,semancakova.olga@gmail.com,"Občianske združenie ponúkajúce psychosociálnu podporu na mieru pre rodiny, vrátane detí odídencov so zdravotným znevýhodnením z Ukrajiny. Centrá Tenenet poskytujú taktiež voľnočasové aktivity pre deti a mládež so zdravotným znevýhodnením."
17.821704,48.429117,71,Zdravie a terapie,Denné centrum Ja sám,Hlohovec,"Podzámska 41/A, 920 01 Hlohovec",17.821704,48.429117,ozjasam.sk,421918989953,brestanska@ozjasam.sk,"Občianske združenie Ja sám poskytuje podporu zdravotne znevýhodneným osobám a ich rodinám, zabezpečovaním programov na rehabilitácie, doplnkových terapií a pomôcok, poradenstva, a iných. Centrum poskytuje rôzne formy terapie pre deti so zdravotným znevýhodnením (Bobath, Neurosensorická stimulácia TOMATIS®, Vojtova metóda, fototerapia, masáže, Hyperbarická oxygenoterapia (HBO), kineziotaping, atď.)."
18.045642,48.893139,31,Zdravie a terapie,Centrum Svetielko Trenčín,Trenčín,"Opatovská 47, Trenčín 911 01",18.045642,48.893139,www.centrumsvetielko.sk,421940833195,svetielko.tn@gmail.com,"Komplexné rehabilitačné služby a primerané odborné vzdelávanie viacnásobne postihnutým deťom formou denného centra, predovšetkým pre deti a mládež s detskou mozgovou obrnou, degeneratívnymi ochoreniami, so zrakovým, mentálnym i telesným postihnutím."
19.148855,48.731216,97,Finančná a materiálna podpora,ADRA DobroCentrum,Banská Bystrica,"Kollarova 18, Banská Bystrica",19.148855,48.731216,https://www.adra.sk/ako-pomahame/slovensko/dobrocentra/,421944128150,office@adra.sk,Mimovládna organizácia poskytujúca materiálnu a sociálnu podporu pre sociálne znevýhodnené skupiny.
19.131671,48.56117,73,Platforma rodín,Regionálne centrum Platformy rodín Zvolen,Zvolen,"Alexandra Nogradyho 15, Zvolen",19.131671,48.56117,platformarodin.sk,421948202489,adriana.zilova@platformarodin.sk,"Podpora rodín detí so zdravotným znevýhodnením zo Slovenska a Ukrajiny:
- individuálne laické poradenstvo
- rodičovské skupiny
- voľnočasové aktivity
- presadzovanie práv v regióne "
19.131671,48.56117,73,Psychosociálna podpora,Regionálne centrum Platformy rodín Zvolen,Zvolen,"Alexandra Nogradyho 15, Zvolen",19.131671,48.56117,platformarodin.sk,421948202489,adriana.zilova@platformarodin.sk,"Podpora rodín detí so zdravotným znevýhodnením zo Slovenska a Ukrajiny:
- individuálne laické poradenstvo
- rodičovské skupiny
- voľnočasové aktivity
- presadzovanie práv v regióne"
19.131671,48.56117,73,Voľný čas,Regionálne centrum Platformy rodín Zvolen,Zvolen,"Alexandra Nogradyho 15, Zvolen",19.131671,48.56117,platformarodin.sk,421948202489,adriana.zilova@platformarodin.sk,"Podpora rodín detí so zdravotným znevýhodnením zo Slovenska a Ukrajiny:
- individuálne laické poradenstvo
- rodičovské skupiny
- voľnočasové aktivity
- presadzovanie práv v regióne"
19.675563,48.338276,106,Starostlivosť do 7 rokov,ALTERNATÍVA – Centrum nezávislého života,Lučenec,"Ul. Jókaiho 101/1, 984 01 Lučenec",19.675563,48.338276,https://alternativacentrum.sk/,421948250834,vcasnaintervencia@cvilucenec.sk,"Podpora rodiny včas a na mieste kde to potrebujú, kedykoľvek od narodenia dieťaťa s rôznym zdravotným znevýhodnením. Návšteva rodiny v ich prirodzenom prostredí a zároveň nás po dohode rodina môže aj sama navštíviť. Podporujeme rozvoj dieťaťa najlepším možným spôsobom a s ohľadom na jeho schopnosti a zručnosti.t"
21.227515,49.004283,53,Finančná a materiálna podpora,Dorka Prešov,Prešov,"Lomnická ul. č. 30, 080 05 Prešov",21.227515,49.004283,https://www.centrumdorka.sk/,421948440499,presov@centrumdorka.sk,"Sociálne služby zamerané na pomoc v krízovej intervencii, prevenciu. Pomoc rodinám,  ktoré sa ocitli v nepriaznivej životnej situácii, mladým dospelým po ukončení náhradnej starostlivosti a deťom, ktorým Dorka dočasne nahrádza ich prirodzené rodinné prostredie."
21.227515,49.004283,53,Psychosociálna podpora,Dorka Prešov,Prešov,"Lomnická ul. č. 30, 080 05 Prešov",21.227515,49.004283,https://www.centrumdorka.sk/,421948440499,presov@centrumdorka.sk,"Sociálne služby zamerané na pomoc v krízovej intervencii, prevenciu. Pomoc rodinám,  ktoré sa ocitli v nepriaznivej životnej situácii, mladým dospelým po ukončení náhradnej starostlivosti a deťom, ktorým Dorka dočasne nahrádza ich prirodzené rodinné prostredie."
21.206114,48.737346,56,Finančná a materiálna podpora,Oáza – nádej pre nový život ,Košice,"Záhrada Bernátovce 779, Košice",21.206114,48.737346,https://new.oaza-nadej.org/,421948443481,oaza.bernatovce@gmail.com,"Organizácia Oáza – nádej pre nový život, n.o. poskytuje tieto služby: nocľaháreň, útulok pre jednotlivcov s deťmi alebo rodiny s deťmi."
21.206114,48.737346,56,Psychosociálna podpora,Oáza – nádej pre nový život ,Košice,"Záhrada Bernátovce 779, Košice",21.206114,48.737346,https://new.oaza-nadej.org/,421948443481,oaza.bernatovce@gmail.com,"Organizácia Oáza – nádej pre nový život, n.o. poskytuje tieto služby: nocľaháreň, útulok pre jednotlivcov s deťmi alebo rodiny s deťmi."
19.137883,48.563184,54,Finančná a materiálna podpora,Dorka Zvolen,Zvolen,"Bystrický rad č. 71, 960 01 Zvolen",19.137883,48.563184,https://www.centrumdorka.sk/,421948553845,zvolen@centrumdorka.sk,"Sociálne služby zamerané na pomoc v krízovej intervencii, prevenciu. Pomoc rodinám,  ktoré sa ocitli v nepriaznivej životnej situácii, mladým dospelým po ukončení náhradnej starostlivosti a deťom, ktorým Dorka dočasne nahrádza ich prirodzené rodinné prostredie."
19.137883,48.563184,54,Psychosociálna podpora,Dorka Zvolen,Zvolen,"Bystrický rad č. 71, 960 01 Zvolen",19.137883,48.563184,https://www.centrumdorka.sk/,421948553845,zvolen@centrumdorka.sk,"Sociálne služby zamerané na pomoc v krízovej intervencii, prevenciu. Pomoc rodinám,  ktoré sa ocitli v nepriaznivej životnej situácii, mladým dospelým po ukončení náhradnej starostlivosti a deťom, ktorým Dorka dočasne nahrádza ich prirodzené rodinné prostredie."
21.249979,48.720558,52,Finančná a materiálna podpora,Dorka Košice,Košice,"Hemerkova 28, Košice",21.249979,48.720558,https://www.centrumdorka.sk/,421948601022,info@centrumdorka.sk,"Sociálne služby zamerané na pomoc v krízovej intervencii, prevenciu. Pomoc rodinám,  ktoré sa ocitli v nepriaznivej životnej situácii, mladým dospelým po ukončení náhradnej starostlivosti a deťom, ktorým Dorka dočasne nahrádza ich prirodzené rodinné prostredie."
21.249979,48.720558,52,Psychosociálna podpora,Dorka Košice,Košice,"Hemerkova 28, Košice",21.249979,48.720558,https://www.centrumdorka.sk/,421948601022,info@centrumdorka.sk,"Sociálne služby zamerané na pomoc v krízovej intervencii, prevenciu. Pomoc rodinám,  ktoré sa ocitli v nepriaznivej životnej situácii, mladým dospelým po ukončení náhradnej starostlivosti a deťom, ktorým Dorka dočasne nahrádza ich prirodzené rodinné prostredie."
18.922129,49.06779,102,Finančná a materiálna podpora,ADRA DobroCentrum,Martin,"V.P. Totha 2, Martin",18.922129,49.06779,https://www.adra.sk/ako-pomahame/slovensko/dobrocentra/,421948761766,office@adra.sk,Mimovládna organizácia poskytujúca materiálnu a sociálnu podporu pre sociálne znevýhodnené skupiny.
19.305856,49.082742,55,Finančná a materiálna podpora,Dorka Ružomberok,Ružomberok,"Pod Skalami 16, 034 01 Ružomberok",19.305856,49.082742,https://www.centrumdorka.sk/,421948834129,ruzomberok@centrumdorka.sk,"Sociálne služby zamerané na pomoc v krízovej intervencii, prevenciu. Pomoc rodinám,  ktoré sa ocitli v nepriaznivej životnej situácii, mladým dospelým po ukončení náhradnej starostlivosti a deťom, ktorým Dorka dočasne nahrádza ich prirodzené rodinné prostredie."
19.305856,49.082742,55,Psychosociálna podpora,Dorka Ružomberok,Ružomberok,"Pod Skalami 16, 034 01 Ružomberok",19.305856,49.082742,https://www.centrumdorka.sk/,421948834129,ruzomberok@centrumdorka.sk,"Sociálne služby zamerané na pomoc v krízovej intervencii, prevenciu. Pomoc rodinám,  ktoré sa ocitli v nepriaznivej životnej situácii, mladým dospelým po ukončení náhradnej starostlivosti a deťom, ktorým Dorka dočasne nahrádza ich prirodzené rodinné prostredie."
18.741737,49.22553,86,Integračné centrá,Ukrajinský dom,Žilina,"Štúrova 10, 010 01 Žilina",18.741737,49.22553,https://www.facebook.com/UAdomZA,421951870383,UAdomZA@gmail.com,"Občianske združenie ponúkajúce psychosociálnu podporu na mieru pre rodiny, vrátane detí odídencov so zdravotným znevýhodnením z Ukrajiny. Centrá Tenenet poskytujú taktiež voľnočasové aktivity pre deti a mládež so zdravotným znevýhodnením."
18.741737,49.22553,86,Psychologická pomoc,Ukrajinský dom,Žilina,"Štúrova 10, 010 01 Žilina",18.741737,49.22553,https://www.facebook.com/UAdomZA,421951870383,UAdomZA@gmail.com,"Občianske združenie ponúkajúce psychosociálnu podporu na mieru pre rodiny, vrátane detí odídencov so zdravotným znevýhodnením z Ukrajiny. Centrá Tenenet poskytujú taktiež voľnočasové aktivity pre deti a mládež so zdravotným znevýhodnením."
18.741737,49.22553,86,Starostlivosť do 7 rokov,Ukrajinský dom,Žilina,"Štúrova 10, 010 01 Žilina",18.741737,49.22553,https://www.facebook.com/UAdomZA,421951870383,UAdomZA@gmail.com,"Občianske združenie ponúkajúce psychosociálnu podporu na mieru pre rodiny, vrátane detí odídencov so zdravotným znevýhodnením z Ukrajiny. Centrá Tenenet poskytujú taktiež voľnočasové aktivity pre deti a mládež so zdravotným znevýhodnením."
18.741737,49.22553,86,Voľný čas,Ukrajinský dom,Žilina,"Štúrova 10, 010 01 Žilina",18.741737,49.22553,https://www.facebook.com/UAdomZA,421951870383,UAdomZA@gmail.com,"Občianske združenie ponúkajúce psychosociálnu podporu na mieru pre rodiny, vrátane detí odídencov so zdravotným znevýhodnením z Ukrajiny. Centrá Tenenet poskytujú taktiež voľnočasové aktivity pre deti a mládež so zdravotným znevýhodnením."
17.104709,48.154782,36,Integračné centrá,Blue Dot Bratislava,Bratislava,"Bottova 6654/7, 811 09 Bratislava",17.104709,48.154782,,421901720099,,"Integračné a informačné centrum pre ukrajinské rodiny s deťmi zriadené UNICEF a UNHCR. Ich primárnym poslaním je vytvoriť bezpečné miesto pre oddych a načerpanie nových síl, ale aj odbornú psychologickú, pedagogickú, sociálnu a zdravotnú pomoc pre všetkých, ktorí sú na úteku pred vojnou a patria do značne znevýhodnených či ohrozených skupín."
19.081209,48.420745,2,Psychosociálna podpora,Centrum sociálnych služieb Krupina,Krupina,"Kalinčiakova 781/2, Krupina",19.081209,48.420745,"css.krupina@gmail.com, www.csska.sk",421903969345,aninasur@gmail.com ,"Sociálne poradenstvo (poskytnutie info o možnostiach finančnej, hmotnej prípadne inej podpory klientov, sprevádzanie pri vybavovaní úradných záležitostí, sprostredkovanie tlmočenia do ukrajinského jazyka na úradoch, atď.), špecializované poradenstvo pre obete násilia, psychologická krízová intervencia, liečebno-pedagogická krízová intervencia, ponuka ambulantnej sociálnej služby, denný stacionár pre osoby so zdravotným znevýhodnením."
19.081209,48.420745,2,Zdravie a terapie,Centrum sociálnych služieb Krupina,Krupina,"Kalinčiakova 781/2, Krupina",19.081209,48.420745,"css.krupina@gmail.com, www.csska.sk",421903969345,aninasur@gmail.com ,"Sociálne poradenstvo (poskytnutie info o možnostiach finančnej, hmotnej prípadne inej podpory klientov, sprevádzanie pri vybavovaní úradných záležitostí, sprostredkovanie tlmočenia do ukrajinského jazyka na úradoch, atď.), špecializované poradenstvo pre obete násilia, psychologická krízová intervencia, liečebno-pedagogická krízová intervencia, ponuka ambulantnej sociálnej služby, denný stacionár pre osoby so zdravotným znevýhodnením."
17.164413,48.14104,19,Podľa znevýhodnenia,Únia nevidiacich a slabozrakých Slovenska,Bratislava,"Sekulská 1, 841 04 Bratislava",17.164413,48.14104,www.unss.sk ,421905477973,unss@unss.sk,"Únia nevidiacich a slabozrakých Slovenska vyjadruje solidaritu Ukrajine, vyslovuje podporu Ukrajinskej asociácii nevidiacich (The Ukrainian Association of the Blind) a podáva pomocnú ruku jej členom so zrakovým znevýhodnením, ktorí sa nachádzajú na území SR. Únia mobilizuje svoje ľudské a materiálne kapacity, aby boli schopní koordinovane a dlhodobo pomáhať."
19.142908,48.571429,38,Podľa znevýhodnenia,Regionálne centrum autizmu,Zvolen,"Moyzesova č. 50, Zvolen 960 01",19.142908,48.571429,https://www.symbia.sk/,421907321527,ddadsszv.symbia@gmail.com,Komplexné sociálno-zdravotno-pedagogické služby pre deti a mládež s autizmom.
17.155614,48.157683,14,Podľa znevýhodnenia,Lymfoma a leukémia,Slovakia,"Prešovská 346/39, Bratislava 821 08",17.155614,48.157683,https://lymfom.sk/onkohelp-ukrajina/,421907549844,manazment@lyl.sk,"Združenie Lymfoma a Leukémia Slovensko zriadili webovú podstránku v ukrajinskom jazyku určenú pre ukrajinských onkologických pacientov a ich príbuzných, ktorí prekročili hranice Slovenska a hľadajú pomoc v oblasti starostlivosti o rakovinu.‎ Pracovníci zhromažďujú dôležité informácie, poskytujú kontakty a najmä sa snažia poskytnúť potrebnú pomoc v spolupráci s inými organizáciami a vládou Slovenskej republiky.‎"
17.163024,48.164785,6,Psychosociálna podpora,Komisár pre osoby so zdravotným znevýhodnením,Slovakia,"Račianska 153, Bratislava 831 54 ",17.163024,48.164785,www.komisar.sk; https://www.facebook.com/komisar.sk; media@komisar.sk,421907732923,media@komisar.sk,"Ako inštitúcia zriadená na ochranu práv osôb so zdravotným znevýhodením v Slovenskej republike ponúkame pomoc s ochranou práv všetkým osobám so zdravotným znevýhodnením (alebo dlhodobým zdravotným problémom), ktoré sa nachádzajú na území SR: riešenie podnetov súvisiacich s ochranou ich práv, právne usmernenie, poradenstvo, sprostredkovanie kontaktu na štátne orgány, verejné inštitúcie a neziskový sektor, v prípade potreby aj asistencia a sprievod v tomto kontakte."
17.163024,48.164785,6,Zdravie a terapie,Komisár pre osoby so zdravotným znevýhodnením,Slovakia,"Račianska 153, Bratislava 831 54 ",17.163024,48.164785,www.komisar.sk; https://www.facebook.com/komisar.sk; media@komisar.sk,421907732923,media@komisar.sk,"Ako inštitúcia zriadená na ochranu práv osôb so zdravotným znevýhodením v Slovenskej republike ponúkame pomoc s ochranou práv všetkým osobám so zdravotným znevýhodnením (alebo dlhodobým zdravotným problémom), ktoré sa nachádzajú na území SR: riešenie podnetov súvisiacich s ochranou ich práv, právne usmernenie, poradenstvo, sprostredkovanie kontaktu na štátne orgány, verejné inštitúcie a neziskový sektor, v prípade potreby aj asistencia a sprievod v tomto kontakte."
21.228784,48.715605,3,Voľný čas,ArtEst Združenie,Košice,"Zuzkin park 4, Košice",21.228784,48.715605,Fb @artestzdruzenie,421907957198,artest.peter@gmail.com ,"Vzdelávanie mentálne znevýhodnenej mládeže v oblasti výtvarnej výchovy, hudobnej výchovy, literárnodramatickej výchovy a tanečnopohybovej výchovy."
17.135812,48.163767,1,Voľný čas,Špeciálne olympiády Slovensko,Bratislava,"Trnavská cesta 37, Bratislava",17.135812,48.163767,"www.specialolympics.sk od 10.3.2021  www.specialolympicss.k/pomocukrajine, aj v ukrajinskom jazyku, kontakt: office@specialolympics.sk ",421917176673,gazova@specialolympics.sk ,"Národná športová organizácia ponúkajúca podporu vo forme pravidelných športových tréningov pre zdravotne znevýhodnených v rôznych športoch. Ponúkame možnosť ukrajinským deťom a mládeži zmysluplne využiť deň športom. Vieme pripraviť športový deň, zabezpečiť, športové pomôcky a výstroj, či kurzy slovenčiny."
17.948836,48.888413,5,Starostlivosť do 7 rokov,Centrum včasnej intervencie Trenčín,Trenčín,"Soblahu 646, Trenčín",17.948836,48.888413,www.cvitrencin.sk,421917522558,zatkova@cvitrencin.sk,"Služba včasnej intervencie je bezplatná sociálna služba (podľa Zákona č. 448/2008 Z.z.), ktorá sa poskytuje dieťaťu od narodenia do siedmich rokov jeho veku, ak je jeho vývin rizikový, alebo ohrozený z dôvodu zdravotného znevýhodnenia a rodine tohto dieťaťa. Transdisciplinárny tím (sociálny pracovník, psychológ, ergoterapeut, pediater, fyzioterapeut) poskytuje služby deťom s zisteným oneskorením vo vývine alebo deťom s zisteným vývinovým postihnutím. Všetky služby sú orientované na rodinu, poskytujú sa väčšinou v prirodzenom prostredí dieťaťa a rodiny – domácom a inom komunitnom prostredí."
21.250592,48.994475,4,Starostlivosť do 7 rokov,Centrum včasnej intervencie Prešov,Prešov,"Vodárenská 0801, Prešov",21.250592,48.994475,https://cvipresov.sk/,421919031421,polakova@cvipresov.sk,"Služba včasnej intervencie je bezplatná sociálna služba (podľa Zákona č. 448/2008 Z.z.), ktorá sa poskytuje dieťaťu od narodenia do siedmich rokov jeho veku, ak je jeho vývin rizikový, alebo ohrozený z dôvodu zdravotného znevýhodnenia a rodine tohto dieťaťa. Transdisciplinárny tím (sociálny pracovník, psychológ, ergoterapeut, pediater, fyzioterapeut) poskytuje služby deťom s zisteným oneskorením vo vývine alebo deťom s zisteným vývinovým postihnutím. Všetky služby sú orientované na rodinu, poskytujú sa väčšinou v prirodzenom prostredí dieťaťa a rodiny – domácom a inom komunitnom prostredí."
17.811438,48.421038,18,Podľa znevýhodnenia,Slovenský zväz posunkujúcich,Slovakia,"Opoj 9, 919 32 Opoj",17.811438,48.421038,www.facebook.com/slovenskyzvazposunkujucich ,421944562234,deaf.vybor@gmail.com,"V rámci Slovenského zväzu posunkujúcich sa v súvislosti s udalosťami na Ukrajine vytvoril Krízový tím SZP - Ukrajina, poskytujúci asistenciu posunkujúcim z Ukrajiny (aj on-line cez video hovor).
Súvisiace odkazy: www.facebook.com/slovenskyzvazposunkujucich "
17.095828,48.162081,32,Zdravie a terapie,Centrum Svetielko Bratislava,Bratislava,"Vavilova 20, Bratislava",17.095828,48.162081,www.centrumsvetielko.sk,421949875500,svetielko.ba@gmail.com,"Komplexné rehabilitačné služby a primerané odborné vzdelávanie viacnásobne postihnutým deťom formou denného centra, predovšetkým pre deti a mládež s detskou mozgovou obrnou, degeneratívnymi ochoreniami, so zrakovým, mentálnym i telesným postihnutím."
17.170276,48.183344,7,Zdravie a terapie,Denné centrum Gardenia,Bratislava,"Bardošova 26, Bratislava",17.170276,48.183344,https://www.facebook.com/centrumGardenia,421950589189,info@cdkl5.sk,"Centrum poskytujúce pod jednou strechou komplexnú terapeutickú starostlivosť pre deti so zdravotným znevýhodnením a ich rodiny. Ponúka špeciálno-pedagogickú intervenciu, rehabilitácie, masáže, oxygenoterapiu, terapiu svetlom, arteterapiu, Tomatis terapiu, individuálne plávanie, kraniosakrálnu terapiu, psychologickú intervenciu a konzultácie k neverbálnej forme komunikácie s logopédom."
21.244211,48.716642,34,Integračné centrá,Blue Dot Košice,Košice,"Staničná 9, Košice",21.244211,48.716642,https://www.facebook.com/groups/bluedotkosice/?paipv=0&eav=AfapOFHHT9TUXNxuwWazSRQl4_zmN-Gulk2PsVqRB53ePqeRvcZOoZfgqBo13XWlQCk&_rdr,421910941991,,"Integračné a informačné centrum pre ukrajinské rodiny s deťmi zriadené UNICEF a UNHCR. Ich primárnym poslaním je vytvoriť bezpečné miesto pre oddych a načerpanie nových síl, ale aj odbornú psychologickú, pedagogickú, sociálnu a zdravotnú pomoc pre všetkých, ktorí sú na úteku pred vojnou a patria do značne znevýhodnených či ohrozených skupín."
21.244211,48.716642,34,Voľný čas,Blue Dot Košice,Košice,"Staničná 9, Košice",21.244211,48.716642,https://www.facebook.com/groups/bluedotkosice/?paipv=0&eav=AfapOFHHT9TUXNxuwWazSRQl4_zmN-Gulk2PsVqRB53ePqeRvcZOoZfgqBo13XWlQCk&_rdr,421910941991,,"Integračné a informačné centrum pre ukrajinské rodiny s deťmi zriadené UNICEF a UNHCR. Ich primárnym poslaním je vytvoriť bezpečné miesto pre oddych a načerpanie nových síl, ale aj odbornú psychologickú, pedagogickú, sociálnu a zdravotnú pomoc pre všetkých, ktorí sú na úteku pred vojnou a patria do značne znevýhodnených či ohrozených skupín."
17.107939,48.146465,12,Psychologická pomoc,Klinika duševného zdravia,Bratislava,"Zochova 6-8, 811 03, Bratislava",17.107939,48.146465,"www.klinikacalma.sk, https://www.facebook.com/klinikadusevnehozdraviaCalma ",+421 2 210 123 10,veronika.mh@klinikacalma.sk ,"Klinika duševného zdravia Calma ponúka modernú starostlivosť o duševné zdravie dospelým i deťom s podozrením na niektorú z vývinových porúch (PAS, ADHA, poruchy učenia). Calma poskytne zdarma psychiatrickú podporu pre deti a dospelých, pre utečencov so zdravotným znevýhodnením umiestnených v Bratislavskom kraji. Kontaktná osoba - špecialistka: MUDr. Veronika Marcinčáková
"
17.132617,48.142797,40,Podľa znevýhodnenia,Spoločnosť Williamsovho syndrómu,Slovakia,"Urbánkova 15, Bratislava 1, 81104",17.132617,48.142797,http://www.spolws.sk/,"+421 252 495 387, +421 911 170 180",msmizansky@gmail.com,Združuje ľudí s Williams-Beuerovým syndrómom.
18.7399,49.220445,65,Psychosociálna podpora,Návrat Žilina,Žilina,"Republiky 31, 010 01 Žilina",18.7399,49.220445,www.navrat.sk,"+421 417 234 273, +421 907 706 523",navrat@navrat.sk,Nezisková organizácia sprevádzajúca rodiny v núdzi a deti v náhradnej starostlivosti.
19.144346,48.728833,66,Psychosociálna podpora,Návrat Banská Bystrica,Banská Bystrica,"29. augusta 25, 974 01 Banská Bystrica",19.144346,48.728833,www.navrat.sk,"+421 484 143 897, +421 907 518 180, +421 918 653 817",navrat@navrat.sk,Nezisková organizácia sprevádzajúca rodiny v núdzi a deti v náhradnej starostlivosti.
21.245756,49.001419,67,Psychosociálna podpora,Centrum Návrat a Nízkoprahové denné centrum pre deti a rodinu,Prešov,"Svätoplukova 12, 080 01 Prešov",21.245756,49.001419,www.navrat.sk,"+421 517 711 679, +421 918 391 019",navrat@navrat.sk,Nezisková organizácia sprevádzajúca rodiny v núdzi a deti v náhradnej starostlivosti.
17.113748,48.14145,29,Podľa znevýhodnenia,Spoločnosť Downovho syndrómu,Slovakia,"Tallerova 4, 811 02 Bratislava",17.113748,48.14145,http://downovsyndrom.sk/v16/node/2426,+421 903 634 396 ,ds@downovsyndrom.sk,"Akútna pomoc - pomôžeme s ubytovaním rodinám s dieťaťom / členom s Downovým syndrómom (DS) v rodinách na Slovensku. Ide o ubytovanie v súkromí v rámci možností našich členov našej spoločnosti.
Potenciálna pomoc v priebehu roka – možnosť zúčastniť sa našich aktivít.
Dlhodobá pomoc – poskytneme kontakty na lekárov, ambulanciu pre DS, kontakty na našich členov bývajúcich v blízkosti azylového ubytovania danej rodiny s dieťaťom s DS
Dlhodobá pomoc – poskytneme požadované informácie v akejkoľvek oblasti života rodiny s dieťaťom s DS na Slovensku."
19.351618,48.821865,107,Starostlivosť do 7 rokov,MISERICORDIAEarly Childhood Intervention Centre ,Čierny Balog,"Strakovo 733/6, 976 52 Čierny Balog",19.351618,48.821865,www.misericordia.sk,"+421 905 255 735, +421 910 777 194",misericordia@misericordia.sk,"Poskytujeme sociálnu službu priamo v rodine, alebo ambulantnou formou v priestoroch organizácie. Prispôsobujeme sa prirodzenému prostrediu rodiny. Pri poskytovaní sociálnej služby sprostredkúvame podporu rodiny, podporné a rozvojové aktivity zamerané na rozvoj pohybu, reči, komunikácie, výchovné poradenstvo. Poskytujeme základné a špecializované sociálne poradenstvo.  Ponúkame prednášky, vzdelávanie rodičov a odbornej verejnosti.  Rehabilitáciu. Vytváranie náhradného prostredia na komunitnú a sociálnu rehabilitáciu pre odídencov z Ukrajiny."
17.11002,48.142237,72,Platforma rodín,Regionálne centrum Platformy rodín Bratislava,Bratislava,"Hálova 993/16, 851 01 Bratislava",17.11002,48.142237,platformarodin.sk,+421 905 411 306,ingrid.vagacova@platformarodin.sk,"Podpora rodín detí so zdravotným znevýhodnením zo Slovenska a Ukrajiny:
- individuálne laické poradenstvo
- rodičovské skupiny
- voľnočasové aktivity
- presadzovanie práv v regióne"
17.11002,48.142237,72,Psychosociálna podpora,Regionálne centrum Platformy rodín Bratislava,Bratislava,"Hálova 993/16, 851 01 Bratislava",17.11002,48.142237,platformarodin.sk,+421 905 411 306,ingrid.vagacova@platformarodin.sk,"Podpora rodín detí so zdravotným znevýhodnením zo Slovenska a Ukrajiny:
- individuálne laické poradenstvo
- rodičovské skupiny
- voľnočasové aktivity
- presadzovanie práv v regióne"
17.11002,48.142237,72,Voľný čas,Regionálne centrum Platformy rodín Bratislava,Bratislava,"Hálova 993/16, 851 01 Bratislava",17.11002,48.142237,platformarodin.sk,+421 905 411 306,ingrid.vagacova@platformarodin.sk,"Podpora rodín detí so zdravotným znevýhodnením zo Slovenska a Ukrajiny:
- individuálne laické poradenstvo
- rodičovské skupiny
- voľnočasové aktivity
- presadzovanie práv v regióne"
17.120926,48.152058,8,Podľa znevýhodnenia,Občianske združenie Downow syndróm,Slovakia,"Riazanská 664/59, 831 03 Bratislava-Nové Mesto",17.120926,48.152058,"https://downovsyndrom.org/, https://www.facebook.com/groups/333612061757567",+421 905 564 120,oz@downovsyndrom.org,"Povzbudenie, spolupatričnosť – otvorenú náruč našej komunity pre každého, kto ju potrebuje. Poradenstvo, pomoc s vybavovaním formalít, pri vybavovaní lekárov či terapií.
Materiálna pomoc v rámci bežných potrieb. V spolupráci s Dobrým anjelom aj finančnú pomoc vo výške cca 150 € mesačne- pomôžeme s jej vybavovaním."
17.094396,48.15032,11,Psychologická pomoc,Výskumný ústav detskej psychológie a patopsychológie (VÚDPaP),,"Cyprichova 42, 831 53 Bratislava",17.094396,48.15032,"https://vudpap.sk/krizova-intervencia/, https://www.facebook.com/vudpap",+421 910 361 252,,"V súvislosti s dopadom súčasnej situácie a informácií, ktoré k nám prichádzajú z Ukrajiny na psychické prežívanie detí, rodičov ako aj učiteľov, Výskumný ústav detskej psychológie a patopsychológie zriadil telefonickú podporu pre rodičov a pedagógov. Prostredníctvom nej chce pomôcť všetkým, ktorí sa ocitli v kríze a majú otázky ohľadom psychického zvládania tejto záťažovej situácie. Odborníci Výskumného ústavu detskej psychológie a patopsychológie poskytujú podporu pri krízovej intervencii a radia, ako aktuálnu situáciu vysvetliť deťom."
21.2611,48.7164,74,Platforma rodín,Regionálne centrum Platformy rodín Košice,Košice,Košice,21.2611,48.7164,platformarodin.sk,+421 910 972 897,ivana.podlesna@platformarodin.sk,"Podpora rodín detí so zdravotným znevýhodnením zo Slovenska a Ukrajiny:
- individuálne laické poradenstvo
- rodičovské skupiny
- voľnočasové aktivity
- presadzovanie práv v regióne "
21.2611,48.7164,74,Psychosociálna podpora,Regionálne centrum Platformy rodín Košice,Košice,Košice,21.2611,48.7164,platformarodin.sk,+421 910 972 897,ivana.podlesna@platformarodin.sk,"Podpora rodín detí so zdravotným znevýhodnením zo Slovenska a Ukrajiny:
- individuálne laické poradenstvo
- rodičovské skupiny
- voľnočasové aktivity
- presadzovanie práv v regióne"
21.2611,48.7164,74,Voľný čas,Regionálne centrum Platformy rodín Košice,Košice,Košice,21.2611,48.7164,platformarodin.sk,+421 910 972 897,ivana.podlesna@platformarodin.sk,"Podpora rodín detí so zdravotným znevýhodnením zo Slovenska a Ukrajiny:
- individuálne laické poradenstvo
- rodičovské skupiny
- voľnočasové aktivity
- presadzovanie práv v regióne"
19.134135,48.572107,15,Psychosociálna podpora,DSS Symbiaautism SYMBIA,Zvolen,"Moyzesova 641, Zvolen",19.134135,48.572107,www.symbia.sk ,"+421 914 262 199, +421907321527","ddadsszv@gmail.com, ddadsszv.symbia@gmail.com","Stredisko Domov sociálnych služieb Symbia sleduje v rámci svojej činnosti cieľ umožniť deťom a dospelým so zdravotným postihnutím  žiť  čo najviac samostatný a plnohodnotný  život  a poskytnúť im primeranú a nevyhnutnú  mieru podpory. Regionálne centrum Autizmu vo Zvolene na adrese ddadsszv@gmail.com poskytne poradenstvo, vstupnú konzultáciu a terapie v rámci svojich kapacít a tiež zabezpečí terénnu sociálnu službu v rámci Banskobystrického kraja. Denný stacionár pre autistické deti a mládež - Moyzesova č. 50, Zvolen 960 02."
19.134135,48.572107,15,Zdravie a terapie,DSS Symbia,Zvolen,"Moyzesova 641, Zvolen",19.134135,48.572107,www.symbia.sk ,"+421 914 262 199, +421907321527","ddadsszv@gmail.com, ddadsszv.symbia@gmail.com","Stredisko Domov sociálnych služieb Symbia sleduje v rámci svojej činnosti cieľ umožniť deťom a dospelým so zdravotným postihnutím  žiť  čo najviac samostatný a plnohodnotný  život  a poskytnúť im primeranú a nevyhnutnú  mieru podpory. Regionálne centrum Autizmu vo Zvolene na adrese ddadsszv@gmail.com poskytne poradenstvo, vstupnú konzultáciu a terapie v rámci svojich kapacít a tiež zabezpečí terénnu sociálnu službu v rámci Banskobystrického kraja. Denný stacionár pre autistické deti a mládež - Moyzesova č. 50, Zvolen 960 02."
17.090768,48.140788,16,Podľa znevýhodnenia,Autistické centrum Andreas,Bratislava,"Galandova 7, Bratislava",17.090768,48.140788,www.andreas.sk ,+421 915 868 940,nakladalova@andreas.sk ,"Autistické centrum Andreas® n.o. je mimovládna organizácia s celoslovenskou pôsobnosťou, založená v roku 2001 za účelom poskytovania všeobecne-prospešných služieb v oblasti sociálnej pomoci a humanitárnej starostlivosti výhradne u populácie s autistickým syndrómom.
Cetrum poskytuje svoje služby vykonávaním sociálnej prevencie, poskytovaním sociálneho poradenstva, vzdelávaním v špeciálnej základnej škole s materskou školou a organizuje školiace aktivity pre odborníkov. Autistické centrum Andreas n.o. poskytne poradenstvo, vstupnú konzultáciu a terapie v rámci svojich kapacít.
Súvisiace odkazy: https://www.facebook.com/autisticke.centrum.andreas "
19.139186,48.744033,10,Starostlivosť do 7 rokov,Centrum včasnej intervencie Banská Bystrica,Banská Bystrica,"Skuteckého 133/30, 974 01 Banská Bystrica",19.139186,48.744033,https://cvibb.webnode.sk/ ,+421 915 951 215,cvimrenicova@gmail.com,"Služba včasnej intervencie je bezplatná sociálna služba (podľa Zákona č. 448/2008 Z.z.), ktorá sa poskytuje dieťaťu od narodenia do siedmich rokov jeho veku, ak je jeho vývin rizikový, alebo ohrozený z dôvodu zdravotného znevýhodnenia a rodine tohto dieťaťa. Transdisciplinárny tím (sociálny pracovník, psychológ, ergoterapeut, pediater, fyzioterapeut) poskytuje služby deťom s zisteným oneskorením vo vývine alebo deťom s zisteným vývinovým postihnutím. Všetky služby sú orientované na rodinu, poskytujú sa väčšinou v prirodzenom prostredí dieťaťa a rodiny – domácom a inom komunitnom prostredí. "
18.7408,48.2194,75,Platforma rodín,Regionálne centrum Platformy rodín Žilina,Žilina,Žilina,18.7408,48.2194,platformarodin.sk,+421 918 350 858,eliska.kapitanova@platformarodin.sk,"Podpora rodín detí so zdravotným znevýhodnením zo Slovenska a Ukrajiny:
- individuálne laické poradenstvo
- rodičovské skupiny
- voľnočasové aktivity
- presadzovanie práv v regióne"
18.7408,48.2194,75,Psychosociálna podpora,Regionálne centrum Platformy rodín Žilina,Žilina,Žilina,18.7408,48.2194,platformarodin.sk,+421 918 350 858,eliska.kapitanova@platformarodin.sk,"Podpora rodín detí so zdravotným znevýhodnením zo Slovenska a Ukrajiny:
- individuálne laické poradenstvo
- rodičovské skupiny
- voľnočasové aktivity
- presadzovanie práv v regióne "
18.7408,48.2194,75,Voľný čas,Regionálne centrum Platformy rodín Žilina,Žilina,Žilina,18.7408,48.2194,platformarodin.sk,+421 918 350 858,eliska.kapitanova@platformarodin.sk,"Podpora rodín detí so zdravotným znevýhodnením zo Slovenska a Ukrajiny:
- individuálne laické poradenstvo
- rodičovské skupiny
- voľnočasové aktivity
- presadzovanie práv v regióne "
17.122502,48.148731,9,Starostlivosť do 7 rokov,Centrum včasnej intervencie Bratislava,Bratislava,"Hálkova 2953/11, 831 03 Bratislava",17.122502,48.148731,"http://www.cvibratislava.sk/, https://www.facebook.com/cvibratislava/",+421 944 012 234,centrum@cvibratislava.sk,"Služba včasnej intervencie je bezplatná sociálna služba (podľa Zákona č. 448/2008 Z.z.), ktorá sa poskytuje dieťaťu od narodenia do siedmich rokov jeho veku, ak je jeho vývin rizikový, alebo ohrozený z dôvodu zdravotného znevýhodnenia a rodine tohto dieťaťa. Transdisciplinárny tím (sociálny pracovník, psychológ, ergoterapeut, pediater, fyzioterapeut) poskytuje služby deťom s zisteným oneskorením vo vývine alebo deťom s zisteným vývinovým postihnutím. Všetky služby sú orientované na rodinu, poskytujú sa väčšinou v prirodzenom prostredí dieťaťa a rodiny – domácom a inom komunitnom prostredí."
17.825379,48.588235,27,Zdravie a terapie,AXIS Medical Center,Pieštany,"Kúpeľný ostrov 3605/34, Piešťany",17.825379,48.588235,"https://www.axis-medical.eu/, https://www.facebook.com/axisinterrehabcentereu/ ",+421 949 829 23 (Roman Bas),bas@axis-medical.eu,"Tím AXIS International Rehabiltation Center si stanovil pred sebou cieľ urobiť pre pacienta a jeho rodinu maximum. Naša práca však ani zďaleka nekončí pri rehabilitácii. Okrem rozvoja pohybových, rečových a kognitívnych schopností pacienta je pre nás veľmi dôležité podporovať socializáciu, motivovať, dodávať sebavedomie a novú energiu do života."
21.242785,49.006594,30,Zdravie a terapie,Centrum Svetielko Prešov,Prešov,"Lomnická 30, Prešov 080 01",21.242785,49.006594,www.centrumsvetielko.sk,+421 949 875 500,svetielko.po@gmail.com,"Komplexné rehabilitačné služby a primerané odborné vzdelávanie viacnásobne postihnutým deťom formou denného centra, predovšetkým pre deti a mládež s detskou mozgovou obrnou, degeneratívnymi ochoreniami, so zrakovým, mentálnym i telesným postihnutím."
19.150758,48.735701,47,Podľa znevýhodnenia,Svetielko nádeje,Banská Bystrica,"Nám. L. Svobodu 4, 974 09 Banská Bystrica",19.150758,48.735701,https://www.svetielkonadeje.sk/?gclid=Cj0KCQjww4-hBhCtARIsAC9gR3Zw5pbBzZ4531DwbeuQEHqS1DOYiObxUft8TRy66q4SIogTz8U3ruUaAsS-EALw_wcB,+421 908 073 073,office@svetielkonadeje.sk,Občianske združenie zamerané na zlepšovanie a skvalitňovanie života detí a mladistvých s onkologickým alebo iným vážnym ochorením a ich rodín.
21.241789,48.71574,61,Zdravie a terapie,Ukraine Care Center,Košice,"Trieda SNP 1, 040 11, Košice",21.241789,48.71574,https://www.unlp.sk/ukraine-care-center/,+42155/615 3111,ucc@unlp.sk,Komplexná zdravotná starostlivosť pre deti z Ukrajiny je poskytovaná v Detskej fakultnej nemocnici Košice.
17.124824,48.111086,28,Psychologická pomoc,Plamienok,Petržalka,"Zadunajská cesta 3685, Bratislava",17.124824,48.111086,www.plamienok.sk ,+421907 377 808,kovacikova@plamienok.sk,"Plamienok je nezisková org., ktorá je v SR priekopníkom rozvoja detskej domácej paliatívnej/hospicovej starostlivosti a smútkového poradenstva a terapie pre deti a ich rodiny. Bezplatne poskytuje vážne, nevyliečiteľne chorým a deťom domácu paliatívnu liečbu a starostlivosť. Vážne chorým deťom, ktoré prišli SR v dôsledku udalostí týchto dní, ponúka Plamienok domáce návštevy lekára, zdravotnej sestry a soc. pracovníka v mieste pobytu týchto detí v BA. Rodičia, ktorí deti sprevádzajú, môžu využiť konzultácie s odborníkmi."
21.249957,48.725036,33,Integračné centrá,Integračné centrum Košického kraja,Košice,"Strojárenská 3, Košice",21.249957,48.725036,https://www.ukraineslovakia.sk/sk/services/p7779/,0800 222 550,ic@nadaciadedo.sk,"Poradenstvo v oblasti vzdelávania, zamestnania, práva a komunikácie s úradmi."
17.104453,48.150931,69,Finančná a materiálna podpora,Equita,Slovakia,"Kozia 26, 811 03 Bratislava",17.104453,48.150931,https://www.equita.sk,,info@equita.sk,"Mimovládna organizácia poskytujúca odbornú zdravotnej starostlivosť a zdravotné pomôcky pre zraniteľné osoby, v ambulancii aj prostredníctvom mobilných tímov."
17.104453,48.150931,69,Zdravie a terapie,Equita,Slovakia,"Kozia 26, 811 03 Bratislava",17.104453,48.150931,https://www.equita.sk,,info@equita.sk,"Mimovládna organizácia poskytujúca odbornú zdravotnej starostlivosť a zdravotné pomôcky pre zraniteľné osoby, v ambulancii aj prostredníctvom mobilných tímov."
18.09004,48.313537,60,Integračné centrá,COMIN,Nitra,"Cintorínska 5, Nitra, 2. poschodie.",18.09004,48.313537,"https://nitra.sk/comin-najdete-na-novej-adresu/#:~:text=COMIN%20je%20kontaktn%C3%BDm%20miestom%20pre,Cintor%C3%ADnska%205%2C%20Nitra%2C%202.",,,COMIN je kontaktným miestom pre všetkých cudzincov prichádzajúcich a žijúcich v Nitre./COMIN 
21.921355,48.754548,35,Integračné centrá,Blue Dot Michalovce,Michalovce,"Mestská športová hala, 26. novembra, 071 01 Michalovce-Stráňany",21.921355,48.754548,https://www.facebook.com/groups/bluedotmichalovce/,,,"Integračné a informačné centrum pre ukrajinské rodiny s deťmi zriadené UNICEF a UNHCR. Ich primárnym poslaním je vytvoriť bezpečné miesto pre oddych a načerpanie nových síl, ale aj odbornú psychologickú, pedagogickú, sociálnu a zdravotnú pomoc pre všetkých, ktorí sú na úteku pred vojnou a patria do značne znevýhodnených či ohrozených skupín."
17.122071,48.14944,91,Škola,Národný inštitút vzdelávania a mládeže,Bratislava,Ševčenkova 11 850 05 Bratislava,17.122071,48.14944,www.nivam.sk/podpora-cudzincov,,www.nivam.sk/podpora-cudzincov,"Koordinátori v ôsmych krajských mestách Slovenska pracujú s ukrajinskými rodinami a školskými inštitúciami, aby individuálnym deťom z Ukrajiny uľahčili zápis a integráciu v slovenských škôlkach a školách (zabezpečenie tlmočenia, psychológov, atď.)."
18.088413,48.317154,93,Škola,Národný inštitút vzdelávania a mládeže,Nitra,"Cabajská 6, 949 01 Nitra",18.088413,48.317154,www.nivam.sk/podpora-cudzincov,,www.nivam.sk/podpora-cudzincov,"Koordinátori v ôsmych krajských mestách Slovenska pracujú s ukrajinskými rodinami a školskými inštitúciami, aby individuálnym deťom z Ukrajiny uľahčili zápis a integráciu v slovenských škôlkach a školách (zabezpečenie tlmočenia, psychológov, atď.)."
17.60383,48.368101,94,Škola,Národný inštitút vzdelávania a mládeže,Trnava,"Lomonosovova 2797/6, 91708 Trnava",17.60383,48.368101,www.nivam.sk/podpora-cudzincov,,www.nivam.sk/podpora-cudzincov,"Koordinátori v ôsmych krajských mestách Slovenska pracujú s ukrajinskými rodinami a školskými inštitúciami, aby individuálnym deťom z Ukrajiny uľahčili zápis a integráciu v slovenských škôlkach a školách (zabezpečenie tlmočenia, psychológov, atď.)."
21.251795,48.719235,89,Škola,Národný inštitút vzdelávania a mládeže,Košice,"Južná trieda 10, 04001 Košice",21.251795,48.719235,www.nivam.sk/podpora-cudzincov,,www.nivam.sk/podpora-cudzincov,"Koordinátori v ôsmych krajských mestách Slovenska pracujú s ukrajinskými rodinami a školskými inštitúciami, aby individuálnym deťom z Ukrajiny uľahčili zápis a integráciu v slovenských škôlkach a školách (zabezpečenie tlmočenia, psychológov, atď.). "
19.149017,48.741287,90,Škola,Národný inštitút vzdelávania a mládeže,Banská Bystrica,"Horná 97, 97401 Banská Bystrica",19.149017,48.741287,www.nivam.sk/podpora-cudzincov,,www.nivam.sk/podpora-cudzincov,"Koordinátori v ôsmych krajských mestách Slovenska pracujú s ukrajinskými rodinami a školskými inštitúciami, aby individuálnym deťom z Ukrajiny uľahčili zápis a integráciu v slovenských škôlkach a školách (zabezpečenie tlmočenia, psychológov, atď.)."
18.044609,48.892371,96,Škola,Národný inštitút vzdelávania a mládeže,Trenčín,"Pod Sokolicami 14, 91101 Trenčín",18.044609,48.892371,www.nivam.sk/podpora-cudzincov,,www.nivam.sk/podpora-cudzincov,"Koordinátori v ôsmych krajských mestách Slovenska pracujú s ukrajinskými rodinami a školskými inštitúciami, aby individuálnym deťom z Ukrajiny uľahčili zápis a integráciu v slovenských škôlkach a školách (zabezpečenie tlmočenia, psychológov, atď.)."
21.237508,49.000946,95,Škola,Národný inštitút vzdelávania a mládeže,Prešov,"Ul. T. Ševčenka 11, 08020 Prešov",21.237508,49.000946,www.nivam.sk/podpora-cudzincov,,www.nivam.sk/podpora-cudzincov,"Koordinátori v ôsmych krajských mestách Slovenska pracujú s ukrajinskými rodinami a školskými inštitúciami, aby individuálnym deťom z Ukrajiny uľahčili zápis a integráciu v slovenských škôlkach a školách (zabezpečenie tlmočenia, psychológov, atď.)."
18.716684,49.239014,92,Škola,Národný inštitút vzdelávania a mládeže,Žilina,"Veľká Okružná 24, 01001 Žilina",18.716684,49.239014,www.nivam.sk/podpora-cudzincov,,www.nivam.sk/podpora-cudzincov,"Koordinátori v ôsmych krajských mestách Slovenska pracujú s ukrajinskými rodinami a školskými inštitúciami, aby individuálnym deťom z Ukrajiny uľahčili zápis a integráciu v slovenských škôlkach a školách (zabezpečenie tlmočenia, psychológov, atď.)."
